,city,country,latitude,loc_concat,longitude
0,ponta do sol,cv,15.742650231265216,"ponta do sol,cv",-40.6832681859882
1,sumbe,ao,-10.353712768254866,"sumbe,ao",13.53591741764535
2,albany,au,-83.32193435552932,"albany,au",110.54266766320717
3,arraial do cabo,br,-31.78714388650254,"arraial do cabo,br",-33.60768234798013
4,lebu,cl,-28.68769886467564,"lebu,cl",-95.86267324115744
5,rikitea,pf,-27.588463154644607,"rikitea,pf",-119.84999115466002
6,khonuu,ru,68.32172322231847,"khonuu,ru",141.9093988741443
7,torbay,ca,45.055514592376994,"torbay,ca",-48.11933594566233
8,abalak,ne,16.017250607745737,"abalak,ne",6.679102706253985
9,jamestown,sh,-36.747009844205934,"jamestown,sh",-6.158653533743461
10,esperance,au,-45.65296449370974,"esperance,au",124.58732980782395
11,nurota,uz,41.41769282356799,"nurota,uz",64.95512090205835
12,vanimo,pg,0.00571480856621065,"vanimo,pg",142.35950359429245
13,thompson,ca,61.162440345874785,"thompson,ca",-89.22329702557931
14,presidente epitacio,br,-22.057535575463575,"presidente epitacio,br",-52.169561335168794
15,eureka,us,41.10680928944382,"eureka,us",-130.3937537029941
16,dikson,ru,83.07391181136168,"dikson,ru",76.69095573142317
17,jumla,np,32.04691041544643,"jumla,np",83.83167646580401
18,moindou,nc,-24.82587020758929,"moindou,nc",163.9400023663515
19,kavieng,pg,11.87073518593904,"kavieng,pg",155.04997948661506
20,nara,ml,16.07922835135473,"nara,ml",-8.197670047360532
21,fez,ma,33.21662731101645,"fez,ma",-3.9467354947781246
22,busselton,au,-36.95184029142395,"busselton,au",102.35989686848643
23,floro,no,61.6197239905149,"floro,no",2.6403853616990602
24,atuona,pf,2.9572798055988443,"atuona,pf",-129.79376192651864
25,upernavik,gl,73.1409227696789,"upernavik,gl",-54.15608082097259
26,rosarito,mx,30.988015803117378,"rosarito,mx",-119.8087619632492
27,hilo,us,11.739464272106659,"hilo,us",-136.98713842214835
28,beloha,mg,-29.52177453684108,"beloha,mg",43.04803923884708
29,urucara,br,-2.440268715186619,"urucara,br",-57.45057036985352
30,butaritari,ki,5.567225448060185,"butaritari,ki",164.50590611009616
31,vaini,to,-48.6837471993577,"vaini,to",-168.92712917536795
32,puerto ayora,ec,-20.49214980823693,"puerto ayora,ec",-106.81531701184849
33,nikolskoye,ru,45.80257798660281,"nikolskoye,ru",177.8826023903201
34,mouila,ga,-1.6066155473437362,"mouila,ga",11.040875861886633
35,punta arenas,cl,-75.21196664275446,"punta arenas,cl",-109.89457337170359
36,vardo,no,71.89688636005536,"vardo,no",33.22373778063678
37,aykhal,ru,67.75001989618511,"aykhal,ru",106.23589810106589
38,freeport,us,42.16876432193749,"freeport,us",-89.91845209040207
39,tahe,cn,52.42303844360637,"tahe,cn",123.52645138385766
40,klyuchi,ru,51.76471157912175,"klyuchi,ru",78.4898704298132
41,yellowknife,ca,73.65022395181359,"yellowknife,ca",-116.10125130260764
42,boysun,uz,38.55872085212354,"boysun,uz",67.27353198883489
43,toungoo,mm,19.323535018902334,"toungoo,mm",96.63372084853656
44,chillicothe,us,39.43101012735656,"chillicothe,us",-83.12075737616834
45,barinitas,ve,8.975085094239446,"barinitas,ve",-70.32826246139385
46,burnie,au,-43.437994063236836,"burnie,au",143.76496735620444
47,ukiah,us,39.228213253539906,"ukiah,us",-124.26448373302111
48,labutta,mm,16.19743162462659,"labutta,mm",91.4082959873922
49,japura,br,-0.6571854127263492,"japura,br",-70.91283457779468
50,okha,ru,56.33371842014793,"okha,ru",143.24272573234737
51,sentyabrskiy,ru,45.7692346671455,"sentyabrskiy,ru",149.11671547504224
52,luanda,ao,-9.051622544904134,"luanda,ao",13.204492137874865
53,zhangzhou,cn,24.05307189485235,"zhangzhou,cn",117.46706186368499
54,hobart,au,-64.61467706608393,"hobart,au",141.13555966245102
55,mangan,in,28.47715349225666,"mangan,in",88.62457048080134
56,nola,cf,3.329935995870855,"nola,cf",15.820512023830588
57,tasiilaq,gl,58.93733591638383,"tasiilaq,gl",-32.88637023215324
58,saint-philippe,re,-47.72596597118903,"saint-philippe,re",64.14308158934942
59,pisco,pe,-25.17698647463733,"pisco,pe",-95.7653024064021
60,karratha,au,-20.459652741812377,"karratha,au",116.35070524699009
61,san rafael,bo,-16.941562488034748,"san rafael,bo",-60.16627124725662
62,kurtamysh,ru,54.680428445762175,"kurtamysh,ru",64.46873261121046
63,san lorenzo,ar,-28.22336637884446,"san lorenzo,ar",-58.04893441416195
64,cavalcante,br,-13.632083663319492,"cavalcante,br",-48.170137439237095
65,lazaro cardenas,mx,17.68387248043412,"lazaro cardenas,mx",-102.33728015288546
66,hajdunanas,hu,47.83580463292327,"hajdunanas,hu",21.336881001673817
67,lasa,cn,35.229260246233025,"lasa,cn",92.42217722766742
68,ayagoz,kz,47.90572229661916,"ayagoz,kz",78.95020779972582
69,san patricio,mx,-1.176082338432039,"san patricio,mx",-115.6042296243981
70,san cristobal,ec,1.328090302474763,"san cristobal,ec",-87.46834499414132
71,saint-pierre,re,-24.90282039542369,"saint-pierre,re",53.90741195919571
72,ushuaia,ar,-63.39947838317013,"ushuaia,ar",-45.99837585571265
73,ribeira grande,pt,36.101876167732314,"ribeira grande,pt",-32.61887301930949
74,salalah,om,12.129289565927635,"salalah,om",58.56820220512935
75,uberlandia,br,-19.298648202900125,"uberlandia,br",-48.22950065771778
76,kamyaran,ir,34.854895305194646,"kamyaran,ir",46.82734874245622
77,mataura,pf,-63.59174439898696,"mataura,pf",-161.2123590561318
78,saint george,bm,27.907409932007837,"saint george,bm",-49.283296245590634
79,ilulissat,gl,71.40819117792017,"ilulissat,gl",-50.1730343847245
80,raga,sd,9.559516863917153,"raga,sd",25.15275691999372
81,alyangula,au,-14.981294771262355,"alyangula,au",140.06123593681173
82,nanakuli,us,11.665155571494822,"nanakuli,us",-164.41178399583356
83,soyo,ao,-7.712691248192343,"soyo,ao",11.143838884240381
84,maniitsoq,gl,63.62484278843331,"maniitsoq,gl",-54.879729215240815
85,yeppoon,au,-22.794016756962023,"yeppoon,au",150.32976299459534
86,geraldton,au,-33.79122045837109,"geraldton,au",86.26989392398501
87,sarlat-la-caneda,fr,44.81369606121814,"sarlat-la-caneda,fr",1.113210764450514
88,cairns,au,-14.467295996620564,"cairns,au",147.2824860225977
89,dibaya,cd,-6.497365132150918,"dibaya,cd",22.585759686537955
90,werda,bw,-25.019903066728233,"werda,bw",22.475249647253946
91,bonavista,ca,52.13227976846903,"bonavista,ca",-47.79850242744635
92,yzeure,fr,46.41313965046348,"yzeure,fr",3.5621866393950654
93,woodward,us,37.11252394162655,"woodward,us",-99.17173695862385
94,berdigestyakh,ru,62.46057554968314,"berdigestyakh,ru",125.58367468173873
95,constitucion,cl,-34.701462673842634,"constitucion,cl",-73.94314671498341
96,duz,tn,31.46284261887037,"duz,tn",7.967650954846192
97,bluff,nz,-70.53877377974169,"bluff,nz",164.38471975493164
98,villa union,mx,27.854378948676768,"villa union,mx",-100.2356293523136
99,palana,ru,59.131337634732034,"palana,ru",160.71660606027194
100,nkhotakota,mw,-12.316903447749723,"nkhotakota,mw",34.60634972770484
101,mahebourg,mu,-25.444440132156345,"mahebourg,mu",62.10552672501211
102,uglovskoye,ru,51.19023442039554,"uglovskoye,ru",80.44524330204655
103,shahrud,ir,36.541766681032996,"shahrud,ir",55.457598319929886
104,tilichiki,ru,60.6359086736619,"tilichiki,ru",171.08852494992317
105,le moule,gp,16.60100165957293,"le moule,gp",-60.96542519175921
106,tsihombe,mg,-32.684884503606064,"tsihombe,mg",46.825752704364135
107,nabire,id,-3.5454463994746135,"nabire,id",136.29273598158514
108,samusu,ws,-9.061786664051397,"samusu,ws",-168.09862874025168
109,virginia beach,us,35.18207568629606,"virginia beach,us",-72.67499270295653
110,axim,gh,-0.5267040561485032,"axim,gh",-3.9577309514758383
111,kamaishi,jp,36.708862412141244,"kamaishi,jp",146.2338724532121
112,falaleu,wf,-14.077458658826586,"falaleu,wf",-174.787200406703
113,carauari,br,-4.545011595607022,"carauari,br",-67.04831104112372
114,rungata,ki,2.1053766551761584,"rungata,ki",177.20506559993723
115,sao pedro do sul,br,-29.550176590406878,"sao pedro do sul,br",-54.569021330602055
116,east london,za,-39.75121115884168,"east london,za",34.99324079204027
117,bonthe,sl,5.066575127853454,"bonthe,sl",-15.015357205766406
118,asau,tv,-7.567423888201645,"asau,tv",178.5691255277241
119,kodiak,us,51.82092363341147,"kodiak,us",-147.83137788736929
120,san rafael,ar,-34.72319823853562,"san rafael,ar",-67.90894011488888
121,obihiro,jp,42.33997612553762,"obihiro,jp",143.67750792283766
122,attawapiskat,ca,63.802922403795804,"attawapiskat,ca",-82.27457212159669
123,saint-georges,gf,5.74463379035231,"saint-georges,gf",-47.80036452063317
124,maryville,us,40.68361262588067,"maryville,us",-94.18237232037114
125,sulangan,ph,11.961925815718473,"sulangan,ph",129.31145301642155
126,cape town,za,-52.36005179933335,"cape town,za",-13.03586541258926
127,ascension,bo,-15.996051303902277,"ascension,bo",-63.25852920832287
128,myitkyina,mm,26.459296733043956,"myitkyina,mm",97.43749885820195
129,langsa,id,4.236887573013107,"langsa,id",98.0786283460073
130,bengkulu,id,-15.78040313140535,"bengkulu,id",86.84398114623644
131,chapais,ca,52.11725485516635,"chapais,ca",-73.96813387570748
132,avarua,ck,-35.015753974480084,"avarua,ck",-166.7594673045001
133,nome,us,64.4170203911412,"nome,us",-165.65272650786562
134,provideniya,ru,60.527647028346166,"provideniya,ru",-170.5748511012536
135,cayenne,gf,9.185740855042411,"cayenne,gf",-46.18017080960789
136,cap malheureux,mu,-18.782833566217874,"cap malheureux,mu",56.945943224099096
137,bogorodskoye,ru,56.507697546657226,"bogorodskoye,ru",37.8564285705059
138,castro,cl,-47.98048641299697,"castro,cl",-100.67174503219906
139,marsh harbour,bs,28.512362603096946,"marsh harbour,bs",-74.21786812592529
140,ixtapa,mx,14.391882832605333,"ixtapa,mx",-102.79635846314596
141,georgetown,sh,-5.724343224491179,"georgetown,sh",-22.999779856628436
142,colares,pt,38.19099095704294,"colares,pt",-14.570449508822776
143,coquimbo,cl,-27.976219001902813,"coquimbo,cl",-83.37729883586888
144,toliary,mg,-24.94796118169708,"toliary,mg",40.15386067557611
145,porto novo,cv,13.740524445579254,"porto novo,cv",-38.32938589475134
146,pinos,mx,22.30192439458048,"pinos,mx",-101.55978567557162
147,bredasdorp,za,-81.62172118658451,"bredasdorp,za",25.536569485603053
148,agadez,ne,18.30095455460865,"agadez,ne",9.87319927169898
149,mahajanga,mg,-16.084830590018825,"mahajanga,mg",46.120469831066686
150,villamontes,bo,-21.37106387551033,"villamontes,bo",-62.73472770798054
151,mabaruma,gy,8.490599054854044,"mabaruma,gy",-58.11722758794622
152,airai,pw,9.692555938658472,"airai,pw",144.1445884720126
153,bargal,so,9.871290059708144,"bargal,so",56.802725556611804
154,erdenet,mn,47.0486916878979,"erdenet,mn",104.56755439851904
155,hermanus,za,-43.00886553141875,"hermanus,za",14.420500762968231
156,touros,br,1.4182515497055164,"touros,br",-26.56219492026969
157,aban,ru,57.24060558128562,"aban,ru",96.1652390444429
158,kapaa,us,17.952545696841128,"kapaa,us",-169.9506859069291
159,chifeng,cn,45.226372193545984,"chifeng,cn",116.7528589738435
160,nargana,pa,12.000696636899846,"nargana,pa",-78.25448920912538
161,umzimvubu,za,-37.100837213924976,"umzimvubu,za",33.9976789914472
162,vila velha,br,-23.708282696850603,"vila velha,br",-30.15131671933969
163,lai,td,9.336988353261816,"lai,td",16.716935409902533
164,nanortalik,gl,49.350950009440766,"nanortalik,gl",-38.930722296841225
165,namibe,ao,-20.104257450145553,"namibe,ao",6.325340383507211
166,marcona,pe,-23.858262482213988,"marcona,pe",-81.85553796638868
167,lumphat,kh,13.756900811060135,"lumphat,kh",106.75707267233389
168,wilmington,us,31.835687060939705,"wilmington,us",-76.24723125362146
169,satitoa,ws,-14.631380389242494,"satitoa,ws",-164.65435751210129
170,richards bay,za,-30.995349017991444,"richards bay,za",36.26604942077864
171,nizhneyansk,ru,73.589501931233,"nizhneyansk,ru",134.19086703385832
172,durango,us,37.792210738926585,"durango,us",-107.07737091997234
173,naze,jp,28.17659181961791,"naze,jp",132.16773726254783
174,bundaberg,au,-20.717005010805792,"bundaberg,au",155.7612012435347
175,bulaevo,kz,54.659830399521326,"bulaevo,kz",70.526131579534
176,moura,pt,38.113912762848884,"moura,pt",-7.467640777439669
177,manggar,id,-1.7774943472619782,"manggar,id",107.72019108740692
178,oranjestad,aw,13.997868044975007,"oranjestad,aw",-71.54953281498632
179,lisala,cd,2.0914874687089764,"lisala,cd",21.793563862140218
180,palabuhanratu,id,-16.30427417088974,"palabuhanratu,id",99.8599319161088
181,qui nhon,vn,15.029025773974709,"qui nhon,vn",113.2320291058871
182,tahta,eg,26.671204314722317,"tahta,eg",31.33282583485817
183,hasaki,jp,34.42100786966529,"hasaki,jp",143.44794282345904
184,grand forks,us,47.828314657794806,"grand forks,us",-95.94720675910253
185,udachnyy,ru,67.27110882026233,"udachnyy,ru",114.59275454723901
186,mayo,ca,63.406025685412175,"mayo,ca",-138.60848359361347
187,roebourne,au,-24.59089106018783,"roebourne,au",117.74215357175069
188,saint-ambroise,ca,49.86494368342548,"saint-ambroise,ca",-71.04985441824547
189,henties bay,na,-22.990732817053527,"henties bay,na",10.016534774350106
190,mount isa,au,-25.39989607449492,"mount isa,au",141.84725218909162
191,ormara,pk,25.56881766547002,"ormara,pk",65.06635776427872
192,antofagasta,cl,-22.37258176610925,"antofagasta,cl",-76.50225730413615
193,kaitangata,nz,-53.93577222916568,"kaitangata,nz",171.8846059144353
194,coahuayana,mx,17.74014954518607,"coahuayana,mx",-103.90746555807107
195,tarakan,id,3.54204983131676,"tarakan,id",117.95625526103096
196,bantogon,ph,6.0620259074285485,"bantogon,ph",123.4563781926554
197,dakar,sn,14.833665204892043,"dakar,sn",-18.638762796690372
198,beringovskiy,ru,58.373115367455625,"beringovskiy,ru",175.94721792710322
199,bocana de paiwas,ni,12.796670889733505,"bocana de paiwas,ni",-84.96334585089244
200,kenitra,ma,34.19868921198699,"kenitra,ma",-6.689590517560191
201,yeniseysk,ru,58.07149591641118,"yeniseysk,ru",91.91343112966348
202,mar del plata,ar,-69.85401974655309,"mar del plata,ar",-24.17458512921138
203,port alfred,za,-77.71691879971665,"port alfred,za",43.32705429008405
204,walvis bay,na,-25.009902345397833,"walvis bay,na",6.7256021046455885
205,sinnamary,gf,9.461522547225556,"sinnamary,gf",-49.81612788854153
206,scottsburgh,za,-32.51221435750023,"scottsburgh,za",34.17478850434293
207,tatawin,tn,32.21846231080244,"tatawin,tn",9.899008683465127
208,amderma,ru,74.78330637743946,"amderma,ru",57.97218815848868
209,nouakchott,mr,18.328359909903284,"nouakchott,mr",-16.39429506146314
210,sitka,us,47.3639451663158,"sitka,us",-142.25888247579684
211,sao joao da barra,br,-27.244831888583064,"sao joao da barra,br",-31.529546057709325
212,agirish,ru,62.32431915302564,"agirish,ru",61.892307841944884
213,torit,sd,4.7329583899390855,"torit,sd",32.387009065778955
214,aswan,eg,24.260945983126035,"aswan,eg",31.590213965273705
215,payo,ph,17.847756112434155,"payo,ph",129.58959921520466
216,saurimo,ao,-9.312876648666403,"saurimo,ao",19.193586524460585
217,reyes,bo,-13.454458401818187,"reyes,bo",-67.48774203312931
218,dunedin,nz,-52.44732206719618,"dunedin,nz",179.77353988763494
219,port elizabeth,za,-52.46702300302198,"port elizabeth,za",30.16806500581302
220,saint-pierre,pm,39.83324249833518,"saint-pierre,pm",-54.19671859665672
221,grand river south east,mu,-21.428717081568067,"grand river south east,mu",74.44269049659206
222,ayan,ru,56.18699531497319,"ayan,ru",138.12473603003855
223,opuwo,na,-20.19133843451702,"opuwo,na",10.89343754533482
224,rundu,na,-18.645361939692748,"rundu,na",18.86436029086883
225,saldanha,za,-40.72060471762107,"saldanha,za",-3.155052454010729
226,buariki,ki,1.8300894418069475,"buariki,ki",168.228129610486
227,aflu,dz,31.292723923342976,"aflu,dz",1.335254816396258
228,salinopolis,br,2.99466827553789,"salinopolis,br",-45.73181907590637
229,palmer,us,57.4674054110381,"palmer,us",-144.46243710285
230,magistralnyy,ru,55.996445448212626,"magistralnyy,ru",107.10797160207572
231,vao,nc,-26.675474890291575,"vao,nc",172.11318022958463
232,kodinsk,ru,60.07222820123536,"kodinsk,ru",99.74284307442439
233,tuatapere,nz,-59.22407844375715,"tuatapere,nz",155.8139868171878
234,saleaula,ws,-0.6100938980613364,"saleaula,ws",-171.1578868565564
235,champerico,gt,9.209559692322799,"champerico,gt",-94.06209548016307
236,feltre,it,46.20341799956171,"feltre,it",11.984558135978375
237,havre-saint-pierre,ca,55.69498958276992,"havre-saint-pierre,ca",-63.087285095648525
238,portland,au,-47.062399597413744,"portland,au",135.96720641237889
239,pedernales,do,17.462186650186922,"pedernales,do",-71.64718370634401
240,laguna,br,-31.51169576214849,"laguna,br",-45.238147662230915
241,pryazha,ru,61.86805821613777,"pryazha,ru",33.501387328500044
242,homer,us,60.701256410723516,"homer,us",-154.05898810060933
243,tual,id,-5.556187946532006,"tual,id",133.007897492682
244,ajdabiya,ly,30.36741526196792,"ajdabiya,ly",20.049419832102615
245,luena,ao,-13.763505403247862,"luena,ao",20.289067009923286
246,gat,ly,23.646631072933644,"gat,ly",10.727870712885647
247,salta,ar,-25.4625030916921,"salta,ar",-64.37875443640513
248,leshukonskoye,ru,64.12509130187416,"leshukonskoye,ru",45.811596462784365
249,viedma,ar,-40.79337330584829,"viedma,ar",-62.04131619053837
250,aflao,gh,5.656142979824452,"aflao,gh",1.53228730686007
251,cidreira,br,-46.740118945586154,"cidreira,br",-29.425167942701535
252,seoul,kr,36.153986618761365,"seoul,kr",128.43709397192447
253,kargasok,ru,61.173276437537936,"kargasok,ru",80.8543283150768
254,lensk,ru,60.09151827875772,"lensk,ru",115.24156819168067
255,sabang,id,8.729381322793728,"sabang,id",94.7667422662109
256,new norfolk,au,-43.05600484538355,"new norfolk,au",146.5264480059979
257,barra do garcas,br,-15.733843301666866,"barra do garcas,br",-52.39351832609972
258,egvekinot,ru,67.87493596699491,"egvekinot,ru",-177.35145554637108
259,ornskoldsvik,se,65.5992918072013,"ornskoldsvik,se",18.02556963785821
260,constitucion,mx,23.68922990430201,"constitucion,mx",-114.08130884064417
261,mogadishu,so,0.8885265844912453,"mogadishu,so",46.77102693338824
262,kununurra,au,-17.691112439991585,"kununurra,au",128.75229907338525
263,kerki,tm,38.28706811282538,"kerki,tm",65.04402632445311
264,zyryanka,ru,65.35521041954303,"zyryanka,ru",148.86723873304584
265,catamarca,ar,-29.210166940461697,"catamarca,ar",-64.72680024899671
266,ascension,mx,31.14599255230391,"ascension,mx",-108.50288159831837
267,kahone,sn,13.908021065239822,"kahone,sn",-16.028823824087823
268,gamba,ga,-7.726515326937417,"gamba,ga",2.757244839814831
269,qaqortoq,gl,65.20138943884945,"qaqortoq,gl",-44.753490712311475
270,barrow,us,78.43788071211907,"barrow,us",-167.15281902861938
271,faanui,pf,-13.006663229993919,"faanui,pf",-157.73909341605935
272,taolanaro,mg,-50.6276168626951,"taolanaro,mg",54.37790646104391
273,halifax,ca,44.74905021308035,"halifax,ca",-63.466751265920834
274,qaanaaq,gl,80.13325108324216,"qaanaaq,gl",-80.84586105599044
275,khatanga,ru,83.40876167610108,"khatanga,ru",106.86222933551018
276,nobeoka,jp,32.586986650308475,"nobeoka,jp",131.98397526110347
277,norman wells,ca,64.32642139232323,"norman wells,ca",-126.30616967897663
278,basco,ph,21.385780767855053,"basco,ph",124.40626409737143
279,grindavik,is,53.8134107547111,"grindavik,is",-27.9086084216446
280,noumea,nc,-29.09113672823635,"noumea,nc",164.35168417347415
281,katherine,au,-15.379646335174684,"katherine,au",132.95118641792158
282,waverly,us,43.02929317404198,"waverly,us",-92.27025050514533
283,pacific grove,us,26.182283761820926,"pacific grove,us",-134.65347816552122
284,vostok,ru,52.125164469498145,"vostok,ru",151.32690757461654
285,saint george,us,36.08472263870857,"saint george,us",-113.38453512389265
286,kruisfontein,za,-60.91929380748724,"kruisfontein,za",26.09797500253842
287,burica,pa,5.7218741381637415,"burica,pa",-84.45400712353927
288,kaeo,nz,-26.094142735417236,"kaeo,nz",178.45341559190436
289,shingu,jp,25.304573183061166,"shingu,jp",137.9964642176406
290,kalnciems,lv,56.88386809796717,"kalnciems,lv",23.50294608458313
291,hamilton,bm,27.473741721222538,"hamilton,bm",-61.21441942239005
292,isangel,vu,-24.688540800816725,"isangel,vu",175.80565792224678
293,governador dix-sept rosado,br,-5.457427000951654,"governador dix-sept rosado,br",-37.52980619749451
294,kapit,my,1.9978066271820296,"kapit,my",115.34406354959548
295,rawah,iq,34.57567165761708,"rawah,iq",41.835660553976794
296,malakal,sd,9.52989241308876,"malakal,sd",32.94284758807271
297,lolua,tv,-5.0752031061530545,"lolua,tv",171.33104968970824
298,atar,mr,20.20216062341025,"atar,mr",-10.599321836276317
299,itacare,br,-14.476078123426461,"itacare,br",-37.34881806233827
300,magadan,ru,56.974740342915396,"magadan,ru",150.42385697963266
301,broome,au,-18.35642836124083,"broome,au",124.68257146472118
302,makakilo city,us,10.835067481828403,"makakilo city,us",-164.34283624862184
303,victoria,sc,-3.2995372890065937,"victoria,sc",49.79099474550998
304,alihe,cn,49.43148955207752,"alihe,cn",123.91641022936996
305,arlit,ne,19.52863159681499,"arlit,ne",4.670270766899279
306,baiyin,cn,36.52527525760077,"baiyin,cn",104.77994217458732
307,krasnoselkup,ru,63.21633143836206,"krasnoselkup,ru",81.85621493501104
308,maningrida,au,-12.15906148038762,"maningrida,au",134.3760773548417
309,barentsburg,sj,74.30044002042106,"barentsburg,sj",7.949737359060691
310,artyom,az,41.04654934128524,"artyom,az",51.01849820662454
311,taoudenni,ml,23.623436948276407,"taoudenni,ml",-5.2384924066458325
312,vinh,vn,19.246447820529482,"vinh,vn",104.79256804914051
313,tikhmenevo,ru,49.06135288228694,"tikhmenevo,ru",142.77700116975905
314,mamallapuram,in,11.66896010192717,"mamallapuram,in",83.62686261588158
315,san jose,gt,11.139582913069106,"san jose,gt",-92.21472700315474
316,mazagao,br,0.09604287184824045,"mazagao,br",-52.30852562599887
317,brae,gb,66.73228589530135,"brae,gb",-1.5183964345760046
318,soe,id,-10.286256393319448,"soe,id",125.3874590895735
319,mount gambier,au,-42.538431009585054,"mount gambier,au",135.2652027756279
320,labuhan,id,-7.5242869986872165,"labuhan,id",104.32433980997779
321,port hedland,au,-19.310623821292978,"port hedland,au",119.90057008226931
322,tongzi,cn,28.148989657945876,"tongzi,cn",106.05056053886683
323,poole,gb,50.85676114439855,"poole,gb",-2.123999635276391
324,mizan teferi,et,6.537908273927414,"mizan teferi,et",34.629308703860545
325,haines junction,ca,57.79874097510981,"haines junction,ca",-142.65460815172895
326,half moon bay,us,34.22354044249427,"half moon bay,us",-128.3799779967274
327,manaure,co,14.6435137538883,"manaure,co",-73.87974365929242
328,san borja,bo,-15.220830371851363,"san borja,bo",-67.15196898685036
329,vaitupu,wf,-12.242031440335353,"vaitupu,wf",-177.7842480208659
330,yulara,au,-26.750289698179934,"yulara,au",126.9803724075532
331,malwan,in,16.055268480520567,"malwan,in",71.3205429372389
332,road town,vg,21.74567317425175,"road town,vg",-63.888726744865835
333,arys,kz,42.20156861049023,"arys,kz",69.00972242773632
334,wenling,cn,27.088076313653545,"wenling,cn",122.97334354879808
335,balimo,pg,-7.7995527776016615,"balimo,pg",142.1540953265187
336,ngorongoro,tz,-3.113451474900586,"ngorongoro,tz",35.00400215030359
337,cananea,mx,31.11057384187221,"cananea,mx",-110.57653996639158
338,muroto,jp,27.66106318583995,"muroto,jp",135.7533529138722
339,poum,nc,-18.837873239658094,"poum,nc",159.11300498475242
340,ahipara,nz,-35.62253546525202,"ahipara,nz",168.1206794036863
341,buala,sb,-7.773062611476703,"buala,sb",158.3313981562971
342,maxixe,mz,-23.718167560662636,"maxixe,mz",35.047334476802035
343,ibia,br,-19.48580741671634,"ibia,br",-46.46965430862133
344,hambantota,lk,2.3138631767662474,"hambantota,lk",84.88214511470402
345,rio grande,br,-46.414493110150474,"rio grande,br",-36.19977326431771
346,chuy,uy,-52.872917773934375,"chuy,uy",-30.878743408985173
347,zhangye,cn,38.564860133507096,"zhangye,cn",99.45623982751889
348,shush,ir,31.931929581960176,"shush,ir",47.65216203754858
349,fort thomas,us,38.78123130703008,"fort thomas,us",-84.15322053093456
350,bathsheba,bb,16.63964251810792,"bathsheba,bb",-48.16476678536938
351,carnarvon,au,-26.365432838302887,"carnarvon,au",92.73425035402408
352,arinos,br,-15.315222714742106,"arinos,br",-45.66816281932381
353,lorengau,pg,9.054000240763884,"lorengau,pg",148.05238691955952
354,tuktoyaktuk,ca,70.91643217561702,"tuktoyaktuk,ca",-130.28347154352088
355,bethel,us,59.5926995162711,"bethel,us",-158.52841557910762
356,obo,cf,3.987160032205324,"obo,cf",26.7246868953348
357,racine,us,42.7782281910294,"racine,us",-87.72854881752488
358,basay,ph,8.782532672050579,"basay,ph",122.15225556079557
359,mindif,cm,10.433934304592569,"mindif,cm",14.303433425530443
360,buin,pg,-9.411113546683396,"buin,pg",153.75857630665035
361,oranjemund,na,-33.74443041057707,"oranjemund,na",6.652396086677356
362,concarneau,fr,46.972603357923674,"concarneau,fr",-4.370073934454098
363,santa fe,us,35.640398378044154,"santa fe,us",-105.9456998450105
364,cabo san lucas,mx,23.77928109189446,"cabo san lucas,mx",-108.86930930248263
365,baoying,cn,33.09388291165311,"baoying,cn",118.87473928714161
366,corinto,ni,9.157765803015593,"corinto,ni",-89.60104537507692
367,nannilam,in,10.903949546025743,"nannilam,in",79.59913624967679
368,cao bang,vn,22.705083519168085,"cao bang,vn",106.73037550207783
369,severo-kurilsk,ru,44.781379635606584,"severo-kurilsk,ru",160.14315035923045
370,mitsamiouli,km,-10.90089954467723,"mitsamiouli,km",42.82264995262989
371,margate,za,-37.90782346520646,"margate,za",36.23530580677081
372,homestead,us,25.357995070973885,"homestead,us",-80.80384990832329
373,port-gentil,ga,-3.6167655298219756,"port-gentil,ga",1.4057742656524965
374,la ronge,ca,64.90545003119979,"la ronge,ca",-104.73238263384144
375,chester,ca,44.67800362387166,"chester,ca",-64.21802962105144
376,hithadhoo,mv,-13.198873877355751,"hithadhoo,mv",84.88303819684015
377,shubarkuduk,kz,47.86194634488484,"shubarkuduk,kz",55.16246542574845
378,sao filipe,cv,11.570759660287749,"sao filipe,cv",-25.374524930559545
379,aljezur,pt,36.150032179398565,"aljezur,pt",-12.964782043369212
380,alim,ph,9.222923117751009,"alim,ph",122.06941624704929
381,salinas,ec,-1.6713625289588805,"salinas,ec",-84.96551102138034
382,morros,br,-9.232561428108582,"morros,br",-47.08264901660604
383,oum hadjer,td,14.716206212925101,"oum hadjer,td",19.452905945602282
384,ambon,id,-4.138440490163859,"ambon,id",126.01441256704437
385,hovd,mn,45.08004746016363,"hovd,mn",98.88751690076099
386,mingguang,cn,32.73758025040229,"mingguang,cn",117.77910874413575
387,constantine,dz,38.366759982915625,"constantine,dz",5.847121848647589
388,ankang,cn,32.074020386128296,"ankang,cn",109.31341368691172
389,tarhunah,ly,32.339584201087575,"tarhunah,ly",13.339115127201069
390,wattegama,lk,6.597808065105852,"wattegama,lk",81.42316545844571
391,el alto,pe,-4.401590614956547,"el alto,pe",-81.20533669816695
392,acapulco,mx,4.273819344438721,"acapulco,mx",-103.95745301438217
393,yaan,cn,31.237510209927777,"yaan,cn",100.2194726734274
394,taylorville,us,39.58462503191703,"taylorville,us",-89.3269523181342
395,ciugud,ro,45.987643218639306,"ciugud,ro",23.643345229938376
396,kavaratti,in,7.976978008000714,"kavaratti,in",63.93661206852717
397,velyka bilozerka,ua,47.11737499955058,"velyka bilozerka,ua",34.61522801247861
398,yumen,cn,36.798158906426735,"yumen,cn",94.52517620624798
399,okhotsk,ru,56.568197973297714,"okhotsk,ru",146.271702011173
400,bubaque,gw,9.024565277185275,"bubaque,gw",-19.490607154152627
401,barao de melgaco,br,-17.685628147878774,"barao de melgaco,br",-56.014419649617906
402,meulaboh,id,-3.6488899491202176,"meulaboh,id",90.9160270489831
403,umm jarr,sd,14.165748367718138,"umm jarr,sd",31.4221484604206
404,coruripe,br,-10.357957698927493,"coruripe,br",-35.517754244859475
405,iracoubo,gf,11.587337907149902,"iracoubo,gf",-51.420080598729754
406,manzhouli,cn,48.70601313670514,"manzhouli,cn",117.20222173424159
407,cockburn town,tc,25.414239555955987,"cockburn town,tc",-70.0135618023588
408,bartica,gy,5.645115195004266,"bartica,gy",-60.07379959418935
409,hegang,cn,47.3036868710449,"hegang,cn",130.04430468431477
410,neiafu,to,-17.97684635462207,"neiafu,to",-176.3187533476272
411,merauke,id,-7.862576338263466,"merauke,id",139.35325047516602
412,upington,za,-29.575917481647714,"upington,za",20.85748500621571
413,tocantinopolis,br,-6.285243631409884,"tocantinopolis,br",-46.9139862191785
414,luchegorsk,ru,46.4723875177678,"luchegorsk,ru",134.49185610036778
415,porto seguro,br,-16.981757911176246,"porto seguro,br",-38.49232387003693
416,port moresby,pg,-11.225392295492554,"port moresby,pg",145.99078097641427
417,robertsport,lr,6.346788501436947,"robertsport,lr",-12.132916460028213
418,porto walter,br,-9.565752527781257,"porto walter,br",-72.65766540506019
419,mega,et,3.364989258387496,"mega,et",38.16517906190134
420,boa vista,br,4.5336214040326865,"boa vista,br",-62.56620471748917
421,pangnirtung,ca,60.64383422647546,"pangnirtung,ca",-62.38958706032656
422,lubango,ao,-15.533140496363828,"lubango,ao",13.204973262342492
423,rawson,ar,-44.725981048691104,"rawson,ar",-60.934377518124705
424,talaya,ru,60.23811346465044,"talaya,ru",154.58305949756644
425,minsk,by,53.42727806476432,"minsk,by",27.67305380738958
426,troitsko-pechorsk,ru,62.313477182470166,"troitsko-pechorsk,ru",57.51461952052601
427,morondava,mg,-21.184922696785748,"morondava,mg",42.92153815830113
428,belushya guba,ru,83.04640992781174,"belushya guba,ru",46.01535326625765
429,paucartambo,pe,-12.945416192257028,"paucartambo,pe",-71.00922132321031
430,kouqian,cn,43.62082605516869,"kouqian,cn",126.33642345886057
431,hongjiang,cn,26.755339411975953,"hongjiang,cn",110.37225975682709
432,najran,sa,20.336116677652427,"najran,sa",47.23044814448403
433,saint anthony,ca,54.16256785366514,"saint anthony,ca",-52.22171880668304
434,hyeres,fr,42.164541556495124,"hyeres,fr",6.429338402719708
435,novikovo,ru,45.359082327629835,"novikovo,ru",143.2830763729464
436,cherskiy,ru,79.13979558615264,"cherskiy,ru",161.69531812642362
437,souillac,mu,-47.068705802505455,"souillac,mu",71.87358217323565
438,kamenskoye,ru,64.16073855304526,"kamenskoye,ru",162.5711388968049
439,colesberg,za,-30.725498488700836,"colesberg,za",24.833691877376253
440,launceston,au,-40.11377131721878,"launceston,au",147.40557647515394
441,korla,cn,38.81349587862189,"korla,cn",89.77174436962096
442,coria,es,39.69945874629843,"coria,es",-6.73200516536204
443,abnub,eg,25.4178267142821,"abnub,eg",25.929707597662798
444,la primavera,co,5.157663059844538,"la primavera,co",-70.18336905426418
445,bambous virieux,mu,-32.36006713797452,"bambous virieux,mu",75.65110220110554
446,gizo,sb,-11.139280110101254,"gizo,sb",155.32711699614254
447,vestmannaeyjar,is,63.554994631750844,"vestmannaeyjar,is",-19.822415754721817
448,hachinohe,jp,40.75847557126207,"hachinohe,jp",142.6367550712393
449,port macquarie,au,-31.422978812049287,"port macquarie,au",155.64695093541025
450,honiara,sb,-16.63629677783372,"honiara,sb",156.69469767648175
451,guatire,ve,11.57699466858449,"guatire,ve",-65.46081383160393
452,vallenar,cl,-27.271048732203376,"vallenar,cl",-74.31283029963714
453,clearlake,us,39.57170178685348,"clearlake,us",-122.49944361603082
454,black river,jm,17.939712472501128,"black river,jm",-77.80453800817287
455,buncrana,ie,55.552757324950704,"buncrana,ie",-7.670964713841727
456,kalmunai,lk,6.535363449497126,"kalmunai,lk",86.35196576722299
457,hay river,ca,60.94877837006857,"hay river,ca",-114.24019927225117
458,san francisco,ar,-30.794277238053496,"san francisco,ar",-62.680612067186416
459,grand gaube,mu,-13.673008738169102,"grand gaube,mu",67.61341850398372
460,kyra,ru,50.056440732839036,"kyra,ru",111.27047150123998
461,bodden town,ky,18.85478516935747,"bodden town,ky",-80.1073342842044
462,mys shmidta,ru,71.35752970097562,"mys shmidta,ru",-179.92396418855435
463,imbituba,br,-28.139250012509713,"imbituba,br",-48.116066898494694
464,paamiut,gl,64.8703120632278,"paamiut,gl",-47.990063973063485
465,valea ierii,ro,46.699859891802106,"valea ierii,ro",23.344697241967822
466,sharjah,ae,25.817460270653,"sharjah,ae",55.188456297567484
467,pitimbu,br,-7.702469303185822,"pitimbu,br",-29.17986373056678
468,moiyabana,bw,-22.49077524711629,"moiyabana,bw",25.883852067746176
469,kabo,cf,7.309575067269904,"kabo,cf",19.252772666574117
470,namatanai,pg,4.945588272091399,"namatanai,pg",158.03683835372587
471,bur gabo,so,-0.4158238260572489,"bur gabo,so",41.34702411367664
472,belaya gora,ru,68.6099301075709,"belaya gora,ru",145.00858529706463
473,ballitoville,za,-30.098938806078237,"ballitoville,za",32.48433215829621
474,fairbanks,us,64.99778692711905,"fairbanks,us",-144.88427024411084
475,elk city,us,35.893131591412384,"elk city,us",-99.80830865779905
476,hit,iq,31.973545797819895,"hit,iq",42.97688762431898
477,mahibadhoo,mv,4.320917985676999,"mahibadhoo,mv",66.88774252201218
478,barbar,sd,20.278335193519737,"barbar,sd",33.54952714169079
479,jalu,ly,27.7505615881106,"jalu,ly",21.117372477472315
480,luganville,vu,-14.5348773160988,"luganville,vu",163.63215648678673
481,katsuura,jp,30.500729607471783,"katsuura,jp",145.74420198269866
482,wellington,nz,-41.21921224237311,"wellington,nz",174.3035038861673
483,felipe carrillo puerto,mx,19.305286226984748,"felipe carrillo puerto,mx",-88.16036264882081
484,moree,au,-28.5835795943089,"moree,au",150.21717393245373
485,may pen,jm,16.92113179995495,"may pen,jm",-77.12576522932295
486,semey,kz,50.39300389779268,"semey,kz",78.63211969813447
487,erenhot,cn,42.40304168314324,"erenhot,cn",111.14535325657327
488,cabedelo,br,-6.008191757091055,"cabedelo,br",-29.704667095834083
489,biak,id,2.82015414728923,"biak,id",136.45686140208684
490,klaksvik,fo,75.57445516295303,"klaksvik,fo",-2.4144518650189184
491,axixa do tocantins,br,-4.807533941533762,"axixa do tocantins,br",-47.7245983207074
492,west bay,ky,18.561322065600905,"west bay,ky",-83.70662502017689
493,tyazhinskiy,ru,56.245553816616905,"tyazhinskiy,ru",88.63154267461499
494,santiago,br,-29.147548018545997,"santiago,br",-54.92596691946238
495,jiddah,sa,23.90588723875345,"jiddah,sa",39.7817154869241
496,camana,pe,-19.963286573862135,"camana,pe",-75.59186018947847
497,coolum beach,au,-25.19481039351109,"coolum beach,au",157.92903936554296
498,talcahuano,cl,-30.43629886209738,"talcahuano,cl",-84.5160140523057
499,barcelona,ph,8.650547926290855,"barcelona,ph",129.3148204442692
500,wanning,cn,17.46000644776781,"wanning,cn",111.61596458435287
501,sarangani,ph,3.9899380106007953,"sarangani,ph",124.94753000240377
502,lima,pe,-14.11023126196767,"lima,pe",-80.28945287408834
503,alofi,nu,-22.658200595693714,"alofi,nu",-165.85633825259754
504,bairiki,ki,1.3671050616447786,"bairiki,ki",163.21409040929103
505,pochutla,mx,7.172945109317467,"pochutla,mx",-96.97459000525282
506,kaka,tm,38.10452573843102,"kaka,tm",59.35048626752848
507,sumenep,id,-5.320053712435623,"sumenep,id",113.66986912972958
508,bouca,cf,6.5222864215092216,"bouca,cf",18.670869948154007
509,takoradi,gh,-0.5059517980846238,"takoradi,gh",-0.028002600631850783
510,urdzhar,kz,46.53382802470048,"urdzhar,kz",83.27424854173529
511,luderitz,na,-32.22749390458601,"luderitz,na",1.0622654149890423
512,maniwaki,ca,46.188678223810825,"maniwaki,ca",-75.54859413600545
513,saint-jean-de-maurienne,fr,45.25587306035024,"saint-jean-de-maurienne,fr",6.414105877147392
514,caconda,ao,-14.008307944125988,"caconda,ao",16.133825342988757
515,talnakh,ru,68.43175170451622,"talnakh,ru",91.86724024936696
516,auki,sb,-5.577450288507848,"auki,sb",162.78548206249278
517,shimoda,jp,24.64852612091694,"shimoda,jp",140.90954468865507
518,college,us,72.4658322237074,"college,us",-146.0987590527953
519,port hardy,ca,42.715984336344064,"port hardy,ca",-139.98408340135182
520,nguiu,au,-11.160425346041748,"nguiu,au",130.04661609350293
521,tecoanapa,mx,15.240099364731705,"tecoanapa,mx",-99.11489042903833
522,khandbari,np,30.009469930286727,"khandbari,np",87.3109327102976
523,londiani,ke,-0.1614435983778577,"londiani,ke",35.52290174939236
524,santa catarina de tepehuanes,mx,25.65125713129575,"santa catarina de tepehuanes,mx",-106.17133493053979
525,fortuna,us,38.170728068132576,"fortuna,us",-135.87417771595534
526,chokwe,mz,-24.02955632110391,"chokwe,mz",33.17583388583685
527,hun,ly,29.423081949283898,"hun,ly",15.92188677694378
528,moyo,ug,4.166119681822465,"moyo,ug",31.501866873042246
529,atherton,au,-18.161803718038257,"atherton,au",143.4491880681921
530,tigzirt,dz,37.73371054905519,"tigzirt,dz",4.768942392254644
531,mazamari,pe,-11.13947969308957,"mazamari,pe",-74.42826999226784
532,sosua,do,19.92792115634539,"sosua,do",-70.30987190332061
533,tres arroyos,ar,-39.15697860652986,"tres arroyos,ar",-59.59217278793858
534,zhanakorgan,kz,44.27670004911536,"zhanakorgan,kz",67.48739358435103
535,oia,gr,36.40806241882622,"oia,gr",25.12068264350671
536,les cayes,ht,15.36707255434635,"les cayes,ht",-73.41548501570469
537,ahuimanu,us,32.76918191585949,"ahuimanu,us",-152.92635514121076
538,panguna,pg,-6.9636417837708535,"panguna,pg",153.2945362826586
539,sao jose da coroa grande,br,-12.44916281688542,"sao jose da coroa grande,br",-28.50123255934281
540,ouango,cf,3.7048990025130735,"ouango,cf",22.439038869159162
541,wahiawa,us,24.195537841586898,"wahiawa,us",-157.1448725160019
542,maghama,mr,17.157920823098337,"maghama,mr",-12.133887687028476
543,antigonish,ca,45.301575169820154,"antigonish,ca",-61.84863665331258
544,wagar,sd,16.813640489327824,"wagar,sd",36.29403364654243
545,catuday,ph,17.091997679910648,"catuday,ph",118.76257866062136
546,addi ugri,er,14.582100398508587,"addi ugri,er",39.298642211176
547,canutama,br,-5.358889046628619,"canutama,br",-64.35889882903777
548,mormugao,in,14.858341155119362,"mormugao,in",72.92358869100423
549,palmerston,au,-12.763172181731392,"palmerston,au",129.7248247466774
550,buta,cd,2.465442193512146,"buta,cd",25.846336054889008
551,devarkonda,in,16.69908131011327,"devarkonda,in",78.91325118809036
552,omboue,ga,-4.215475631425306,"omboue,ga",6.443732885084074
553,sur,om,20.790695685056164,"sur,om",61.415962189511205
554,challans,fr,45.808105973100965,"challans,fr",-2.589911307362712
555,zhangjiakou,cn,42.341040254086295,"zhangjiakou,cn",115.60118463748312
556,moron,mn,47.28004988045012,"moron,mn",101.16343047776819
557,kahului,us,37.45269883915299,"kahului,us",-149.51164482387526
558,tulun,ru,53.53477488250158,"tulun,ru",100.91666382309103
559,bilma,ne,21.537392259620447,"bilma,ne",15.525286442512538
560,kolokani,ml,13.626144456919661,"kolokani,ml",-8.643500175856786
561,port blair,in,13.989059402261134,"port blair,in",87.99189040441982
562,bang saphan,th,10.801808753601634,"bang saphan,th",99.7493163352517
563,bontang,id,1.0781820720495574,"bontang,id",117.67590000377176
564,tashigang,bt,27.38360202986611,"tashigang,bt",91.51141807156068
565,turbat,pk,26.526251181986666,"turbat,pk",62.75386379697447
566,winslow,us,34.792150789600186,"winslow,us",-110.37895439794227
567,madera,mx,28.43019943082652,"madera,mx",-108.42722605066774
568,hobyo,so,4.126042582356135,"hobyo,so",47.84728334683933
569,astoria,us,45.836541695048766,"astoria,us",-125.6272443302725
570,ladario,br,-19.86233293088668,"ladario,br",-57.24407176697733
571,sindou,bf,10.906654941743781,"sindou,bf",-5.352309498320011
572,thinadhoo,mv,-0.2141266545160505,"thinadhoo,mv",70.07957454687906
573,santa cruz,cr,7.593935790938488,"santa cruz,cr",-88.04766598190628
574,narasannapeta,in,15.477367814571224,"narasannapeta,in",86.51311715817674
575,booue,ga,0.14032008844294808,"booue,ga",12.34127977435125
576,flinders,au,-31.899835136037318,"flinders,au",131.00715348841848
577,dandong,cn,39.800521498572266,"dandong,cn",124.18924280953803
578,haapiti,pf,-18.078313494612615,"haapiti,pf",-150.42475450521863
579,ravar,ir,31.079279688338744,"ravar,ir",56.82720703675001
580,batagay,ru,69.02297797333756,"batagay,ru",134.48592737543706
581,qeshm,ir,26.397870745678915,"qeshm,ir",56.69473907910974
582,tessalit,ml,20.92005502986332,"tessalit,ml",1.199116142468938
583,dicabisagan,ph,17.02377625210049,"dicabisagan,ph",124.18525205439285
584,peniche,pt,40.94720276549458,"peniche,pt",-13.813415260646622
585,birjand,ir,31.500766787927034,"birjand,ir",59.8999769828236
586,port shepstone,za,-31.659496558938955,"port shepstone,za",32.04187210482874
587,adilcevaz,tr,38.656013647272204,"adilcevaz,tr",43.03128809068147
588,bikaner,in,28.205590687846694,"bikaner,in",72.66263083432091
589,betare oya,cm,5.440791887342115,"betare oya,cm",13.856098884520094
590,sharlyk,ru,52.8300070973759,"sharlyk,ru",54.59716348163799
591,divala,pa,8.397255054088433,"divala,pa",-82.75129069376817
592,morgan city,us,28.848924276597685,"morgan city,us",-91.76133626694406
593,ancud,cl,-41.50302503653615,"ancud,cl",-96.0049587327403
594,los llanos de aridane,es,26.601808510420753,"los llanos de aridane,es",-24.03937424454162
595,custoias,pt,40.97230681673679,"custoias,pt",-7.255543379704676
596,gurgentepe,tr,40.77824768121221,"gurgentepe,tr",37.699029447585616
597,aksarka,ru,65.5195159927562,"aksarka,ru",69.35450908452425
598,northam,au,-30.631487343694317,"northam,au",119.32451944071762
599,lagoa,pt,48.202162085228196,"lagoa,pt",-30.29193309172473
